[{"name": "\u5357\u6e2f\u5c55\u89bd\u9928", "lng": 25.0553, "address": "\u6587\u6e56\u7dda\uff1a11568\u81fa\u5317\u5e02\u5357\u6e2f\u5340\u5357\u6e2f\u8def1\u6bb532\u865f,\u677f\u5357\u7dda\uff1a11568\u81fa\u5317\u5e02\u5357\u6e2f\u5340\u7814\u7a76\u9662\u8def1\u6bb51\u865f", "lat": 121.617575, "line": "\u6587\u5c71\u5167\u6e56\u7dda", "id": "031"}, {"name": "\u5357\u6e2f\u8edf\u9ad4\u5712\u5340", "lng": 25.05992, "address": "11568\u81fa\u5317\u5e02\u5357\u6e2f\u5340\u7d93\u8cbf\u4e8c\u8def183\u865f", "lat": 121.615, "line": "\u6587\u5c71\u5167\u6e56\u7dda", "id": "030"}, {"name": "\u6771\u6e56", "lng": 25.067455, "address": "11486\u81fa\u5317\u5e02\u5167\u6e56\u5340\u5eb7\u5be7\u8def3\u6bb5235\u865f", "lat": 121.611535, "line": "\u6587\u5c71\u5167\u6e56\u7dda", "id": "029"}, {"name": "\u846b\u6d32", "lng": 25.07271, "address": "11486\u81fa\u5317\u5e02\u5167\u6e56\u5340\u5eb7\u5be7\u8def3\u6bb516\u865f", "lat": 121.6071455, "line": "\u6587\u5c71\u5167\u6e56\u7dda", "id": "028"}, {"name": "\u5927\u6e56\u516c\u5712", "lng": 25.083805, "address": "11477\u81fa\u5317\u5e02\u5167\u6e56\u5340\u6210\u529f\u8def5\u6bb511\u865f", "lat": 121.602214, "line": "\u6587\u5c71\u5167\u6e56\u7dda", "id": "027"}, {"name": "\u5167\u6e56", "lng": 25.083675, "address": "11489\u81fa\u5317\u5e02\u5167\u6e56\u5340\u6210\u529f\u8def4\u6bb5186\u865f", "lat": 121.594363, "line": "\u6587\u5c71\u5167\u6e56\u7dda", "id": "026"}, {"name": "\u6587\u5fb7", "lng": 25.078455, "address": "11475\u81fa\u5317\u5e02\u5167\u6e56\u5340\u6587\u5fb7\u8def214\u865f", "lat": 121.5849995, "line": "\u6587\u5c71\u5167\u6e56\u7dda", "id": "025"}, {"name": "\u6e2f\u5898", "lng": 25.08007, "address": "11446\u81fa\u5317\u5e02\u5167\u6e56\u5340\u5167\u6e56\u8def1\u6bb5663\u865f", "lat": 121.57516, "line": "\u6587\u5c71\u5167\u6e56\u7dda", "id": "024"}, {"name": "\u897f\u6e56", "lng": 25.08216, "address": "11493\u81fa\u5317\u5e02\u5167\u6e56\u5340\u5167\u6e56\u8def1\u6bb5256\u865f", "lat": 121.567227, "line": "\u6587\u5c71\u5167\u6e56\u7dda", "id": "023"}, {"name": "\u528d\u5357\u8def", "lng": 25.08483, "address": "10464\u81fa\u5317\u5e02\u4e2d\u5c71\u5340\u5317\u5b89\u8def798\u865f", "lat": 121.5555825, "line": "\u6587\u5c71\u5167\u6e56\u7dda", "id": "022"}, {"name": "\u5927\u76f4", "lng": 25.07943, "address": "10465\u81fa\u5317\u5e02\u4e2d\u5c71\u5340\u5317\u5b89\u8def534\u4e4b1\u865f", "lat": 121.54679, "line": "\u6587\u5c71\u5167\u6e56\u7dda", "id": "021"}, {"name": "\u677e\u5c71\u6a5f\u5834", "lng": 25.0629075, "address": "10576\u81fa\u5317\u5e02\u677e\u5c71\u5340\u6566\u5316\u5317\u8def338\u865f", "lat": 121.55201, "line": "\u6587\u5c71\u5167\u6e56\u7dda", "id": "007"}, {"name": "\u4e2d\u5c71\u570b\u4e2d", "lng": 25.06085, "address": "10476\u81fa\u5317\u5e02\u4e2d\u5c71\u5340\u5fa9\u8208\u5317\u8def376\u865f", "lat": 121.544215, "line": "\u6587\u5c71\u5167\u6e56\u7dda", "id": "008"}, {"name": "\u5357\u4eac\u6771\u8def", "lng": 25.052285, "address": "10550\u81fa\u5317\u5e02\u677e\u5c71\u5340\u5357\u4eac\u6771\u8def3\u6bb5253\u865f", "lat": 121.544045, "line": "\u6587\u5c71\u5167\u6e56\u7dda", "id": "009"}, {"name": "\u5fe0\u5b5d\u5fa9\u8208", "lng": 25.04163, "address": "\u6587\u6e56\u7dda\uff1a10654\u81fa\u5317\u5e02\u5927\u5b89\u5340\u5fe0\u5b5d\u6771\u8def3\u6bb5302\u865f\u300110666\u81fa\u5317\u5e02\u5927\u5b89\u5340\u5fa9\u8208\u5357\u8def1\u6bb5180\u865f,\u677f\u5357\u7dda\uff1a10691\u81fa\u5317\u5e02\u5927\u5b89\u5340\u5fe0\u5b5d\u6771\u8def4\u6bb547\u865f", "lat": 121.5442, "line": "\u6587\u5c71\u5167\u6e56\u7dda", "id": "010"}, {"name": "\u5927\u5b89", "lng": 25.033311, "address": "\u6587\u6e56\u7dda\uff1a10683\u81fa\u5317\u5e02\u5927\u5b89\u5340\u4fe1\u7fa9\u8def4\u6bb52\u865f,\u4fe1\u7fa9\u7dda\uff1a10658\u81fa\u5317\u5e02\u5927\u5b89\u5340\u4fe1\u7fa9\u8def3\u6bb5180\u865f", "lat": 121.54237, "line": "\u6587\u5c71\u5167\u6e56\u7dda", "id": "011"}, {"name": "\u79d1\u6280\u5927\u6a13", "lng": 25.02612, "address": "10667\u81fa\u5317\u5e02\u5927\u5b89\u5340\u5fa9\u8208\u5357\u8def2\u6bb5235\u865f", "lat": 121.5434615, "line": "\u6587\u5c71\u5167\u6e56\u7dda", "id": "012"}, {"name": "\u516d\u5f35\u7281", "lng": 25.02381, "address": "10674\u81fa\u5317\u5e02\u5927\u5b89\u5340\u548c\u5e73\u6771\u8def3\u6bb5168\u865f", "lat": 121.55302, "line": "\u6587\u5c71\u5167\u6e56\u7dda", "id": "013"}, {"name": "\u9e9f\u5149", "lng": 25.018495, "address": "10676\u81fa\u5317\u5e02\u5927\u5b89\u5340\u548c\u5e73\u6771\u8def3\u6bb5410\u865f", "lat": 121.5588335, "line": "\u6587\u5c71\u5167\u6e56\u7dda", "id": "014"}, {"name": "\u8f9b\u4ea5", "lng": 25.005455, "address": "11694\u81fa\u5317\u5e02\u6587\u5c71\u5340\u8f9b\u4ea5\u8def4\u6bb5128\u865f", "lat": 121.5570455, "line": "\u6587\u5c71\u5167\u6e56\u7dda", "id": "015"}, {"name": "\u842c\u82b3\u91ab\u9662", "lng": 24.99932, "address": "11696\u81fa\u5317\u5e02\u6587\u5c71\u5340\u8208\u9686\u8def3\u6bb5113\u865f", "lat": 121.558092, "line": "\u6587\u5c71\u5167\u6e56\u7dda", "id": "016"}, {"name": "\u842c\u82b3\u793e\u5340", "lng": 24.99857, "address": "11653\u81fa\u5317\u5e02\u6587\u5c71\u5340\u842c\u82b3\u8def60\u865f", "lat": 121.568088, "line": "\u6587\u5c71\u5167\u6e56\u7dda", "id": "017"}, {"name": "\u6728\u67f5", "lng": 24.99824, "address": "11656\u81fa\u5317\u5e02\u6587\u5c71\u5340\u6728\u67f5\u8def4\u6bb5135\u865f", "lat": 121.573127, "line": "\u6587\u5c71\u5167\u6e56\u7dda", "id": "018"}, {"name": "\u52d5\u7269\u5712", "lng": 24.998205, "address": "11656\u81fa\u5317\u5e02\u6587\u5c71\u5340\u65b0\u5149\u8def2\u6bb532\u865f", "lat": 121.579501, "line": "\u6587\u5c71\u5167\u6e56\u7dda", "id": "019"}, {"name": "\u6de1\u6c34", "lng": 25.167745, "address": "25158\u65b0\u5317\u5e02\u6de1\u6c34\u5340\u4e2d\u6b63\u8def1\u865f", "lat": 121.445805, "line": "\u6de1\u6c34\u3001\u4fe1\u7fa9\u7dda", "id": "071"}, {"name": "\u7d05\u6a39\u6797", "lng": 25.15399, "address": "25173\u65b0\u5317\u5e02\u6de1\u6c34\u5340\u4e2d\u6b63\u6771\u8def2\u6bb568\u865f", "lat": 121.4588, "line": "\u6de1\u6c34\u3001\u4fe1\u7fa9\u7dda", "id": "070"}, {"name": "\u7af9\u570d", "lng": 25.1369, "address": "25173\u65b0\u5317\u5e02\u6de1\u6c34\u5340\u6c11\u6b0a\u8def50\u865f", "lat": 121.45955, "line": "\u6de1\u6c34\u3001\u4fe1\u7fa9\u7dda", "id": "069"}, {"name": "\u95dc\u6e21", "lng": 25.12551, "address": "11259\u81fa\u5317\u5e02\u5317\u6295\u5340\u5927\u5ea6\u8def3\u6bb5296\u5df751\u865f", "lat": 121.467, "line": "\u6de1\u6c34\u3001\u4fe1\u7fa9\u7dda", "id": "068"}, {"name": "\u5fe0\u7fa9", "lng": 25.1309225, "address": "11257\u81fa\u5317\u5e02\u5317\u6295\u5340\u4e2d\u592e\u5317\u8def4\u6bb5301\u865f", "lat": 121.4732975, "line": "\u6de1\u6c34\u3001\u4fe1\u7fa9\u7dda", "id": "067"}, {"name": "\u5fa9\u8208\u5d17", "lng": 25.137497, "address": "11257\u81fa\u5317\u5e02\u5317\u6295\u5340\u4e2d\u592e\u5317\u8def3\u6bb553\u5df710\u865f", "lat": 121.485456, "line": "\u6de1\u6c34\u3001\u4fe1\u7fa9\u7dda", "id": "066"}, {"name": "\u5317\u6295", "lng": 25.1318185, "address": "11246\u81fa\u5317\u5e02\u5317\u6295\u5340\u5149\u660e\u8def1\u865f", "lat": 121.4986475, "line": "\u6de1\u6c34\u3001\u4fe1\u7fa9\u7dda", "id": "064"}, {"name": "\u65b0\u5317\u6295", "lng": 25.1369315, "address": "11268\u81fa\u5317\u5e02\u5317\u6295\u5340\u5927\u696d\u8def700\u865f", "lat": 121.5025955, "line": "\u6de1\u6c34\u3001\u4fe1\u7fa9\u7dda", "id": "065"}, {"name": "\u5947\u5ca9", "lng": 25.1254705, "address": "11270\u81fa\u5317\u5e02\u5317\u6295\u5340\u4e09\u5408\u88572\u6bb5489\u865f", "lat": 121.50114, "line": "\u6de1\u6c34\u3001\u4fe1\u7fa9\u7dda", "id": "063"}, {"name": "\u552d\u54e9\u5cb8", "lng": 25.1208515, "address": "11265\u81fa\u5317\u5e02\u5317\u6295\u5340\u6771\u83ef\u88572\u6bb5301\u865f", "lat": 121.506234, "line": "\u6de1\u6c34\u3001\u4fe1\u7fa9\u7dda", "id": "062"}, {"name": "\u77f3\u724c", "lng": 25.114455, "address": "11271\u81fa\u5317\u5e02\u5317\u6295\u5340\u77f3\u724c\u8def1\u6bb5200\u865f", "lat": 121.515572, "line": "\u6de1\u6c34\u3001\u4fe1\u7fa9\u7dda", "id": "061"}, {"name": "\u660e\u5fb7", "lng": 25.109815, "address": "11280\u81fa\u5317\u5e02\u5317\u6295\u5340\u660e\u5fb7\u8def95\u865f", "lat": 121.518785, "line": "\u6de1\u6c34\u3001\u4fe1\u7fa9\u7dda", "id": "060"}, {"name": "\u829d\u5c71", "lng": 25.102718, "address": "11158\u81fa\u5317\u5e02\u58eb\u6797\u5340\u798f\u570b\u8def70\u865f", "lat": 121.522546, "line": "\u6de1\u6c34\u3001\u4fe1\u7fa9\u7dda", "id": "059"}, {"name": "\u58eb\u6797", "lng": 25.0934925, "address": "11163\u81fa\u5317\u5e02\u58eb\u6797\u5340\u798f\u5fb7\u8def1\u865f", "lat": 121.52623, "line": "\u6de1\u6c34\u3001\u4fe1\u7fa9\u7dda", "id": "058"}, {"name": "\u528d\u6f6d", "lng": 25.0842015, "address": "11163\u81fa\u5317\u5e02\u58eb\u6797\u5340\u4e2d\u5c71\u5317\u8def5\u6bb565\u865f", "lat": 121.5249545, "line": "\u6de1\u6c34\u3001\u4fe1\u7fa9\u7dda", "id": "057"}, {"name": "\u5713\u5c71", "lng": 25.0714085, "address": "10367\u81fa\u5317\u5e02\u5927\u540c\u5340\u9152\u6cc9\u88579\u4e4b1\u865f", "lat": 121.520074, "line": "\u6de1\u6c34\u3001\u4fe1\u7fa9\u7dda", "id": "056"}, {"name": "\u6c11\u6b0a\u897f\u8def", "lng": 25.06235, "address": "10365\u81fa\u5317\u5e02\u5927\u540c\u5340\u6c11\u6b0a\u897f\u8def72\u865f", "lat": 121.519585, "line": "\u6de1\u6c34\u3001\u4fe1\u7fa9\u7dda", "id": "055"}, {"name": "\u96d9\u9023", "lng": 25.057575, "address": "10354\u81fa\u5317\u5e02\u5927\u540c\u5340\u6c11\u751f\u897f\u8def47\u865f", "lat": 121.520685, "line": "\u6de1\u6c34\u3001\u4fe1\u7fa9\u7dda", "id": "054"}, {"name": "\u4e2d\u5c71", "lng": 25.052621, "address": "10444\u81fa\u5317\u5e02\u4e2d\u5c71\u5340\u5357\u4eac\u897f\u8def16\u865f", "lat": 121.520364, "line": "\u6de1\u6c34\u3001\u4fe1\u7fa9\u7dda", "id": "053"}, {"name": "\u53f0\u5317\u8eca\u7ad9", "lng": 25.04631, "address": "10041\u81fa\u5317\u5e02\u4e2d\u6b63\u5340\u5fe0\u5b5d\u897f\u8def1\u6bb549\u865f", "lat": 121.517415, "line": "\u6de1\u6c34\u3001\u4fe1\u7fa9\u7dda", "id": "051"}, {"name": "\u53f0\u5927\u91ab\u9662", "lng": 25.04174, "address": "10048\u81fa\u5317\u5e02\u4e2d\u6b63\u5340\u516c\u5712\u8def52\u865fB1", "lat": 121.516045, "line": "\u6de1\u6c34\u3001\u4fe1\u7fa9\u7dda", "id": "050"}, {"name": "\u4e2d\u6b63\u7d00\u5ff5\u5802", "lng": 25.033475, "address": "10074\u81fa\u5317\u5e02\u4e2d\u6b63\u5340\u7f85\u65af\u798f\u8def1\u6bb58\u4e4b1\u865fB1", "lat": 121.5177, "line": "\u6de1\u6c34\u3001\u4fe1\u7fa9\u7dda", "id": "042"}, {"name": "\u6771\u9580", "lng": 25.033894, "address": "10650\u81fa\u5317\u5e02\u5927\u5b89\u5340\u4fe1\u7fa9\u8def2\u6bb5166\u865fB1", "lat": 121.528766, "line": "\u6de1\u6c34\u3001\u4fe1\u7fa9\u7dda", "id": "134"}, {"name": "\u5927\u5b89\u68ee\u6797\u516c\u5712", "lng": 25.033506, "address": "10656\u81fa\u5317\u5e02\u5927\u5b89\u5340\u4fe1\u7fa9\u8def3\u6bb5100\u865fB1", "lat": 121.538701, "line": "\u6de1\u6c34\u3001\u4fe1\u7fa9\u7dda", "id": "103"}, {"name": "\u5927\u5b89", "lng": 25.033311, "address": "\u6587\u6e56\u7dda\uff1a10683\u81fa\u5317\u5e02\u5927\u5b89\u5340\u4fe1\u7fa9\u8def4\u6bb52\u865f,\u4fe1\u7fa9\u7dda\uff1a10658\u81fa\u5317\u5e02\u5927\u5b89\u5340\u4fe1\u7fa9\u8def3\u6bb5180\u865f", "lat": 121.54237, "line": "\u6de1\u6c34\u3001\u4fe1\u7fa9\u7dda", "id": "011"}, {"name": "\u4fe1\u7fa9\u5b89\u548c", "lng": 25.033447, "address": "10681\u81fa\u5317\u5e02\u5927\u5b89\u5340\u4fe1\u7fa9\u8def4\u6bb5212\u4e4b1\u865fB1", "lat": 121.551747, "line": "\u6de1\u6c34\u3001\u4fe1\u7fa9\u7dda", "id": "101"}, {"name": "\u53f0\u5317101/\u4e16\u8cbf", "lng": 25.033058, "address": "11049\u81fa\u5317\u5e02\u4fe1\u7fa9\u5340\u4fe1\u7fa9\u8def5\u6bb520\u865fB1", "lat": 121.560395, "line": "\u6de1\u6c34\u3001\u4fe1\u7fa9\u7dda", "id": "100"}, {"name": "\u8c61\u5c71", "lng": 25.032864, "address": "11080\u81fa\u5317\u5e02\u4fe1\u7fa9\u5340\u4fe1\u7fa9\u8def5\u6bb5152\u865fB1", "lat": 121.568849, "line": "\u6de1\u6c34\u3001\u4fe1\u7fa9\u7dda", "id": "099"}, {"name": "\u5c0f\u5357\u9580", "lng": 25.035585, "address": "10066\u81fa\u5317\u5e02\u4e2d\u6b63\u5340\u611b\u570b\u897f\u8def22\u865fB1", "lat": 121.51088, "line": "\u5c0f\u5357\u9580\u3001\u65b0\u5e97\u7dda", "id": "043"}, {"name": "\u53e4\u4ead", "lng": 25.026675, "address": "10084\u81fa\u5317\u5e02\u4e2d\u6b63\u5340\u7f85\u65af\u798f\u8def2\u6bb5164\u4e4b1\u865fB1", "lat": 121.522635, "line": "\u5c0f\u5357\u9580\u3001\u65b0\u5e97\u7dda", "id": "041"}, {"name": "\u53f0\u96fb\u5927\u6a13", "lng": 25.020733, "address": "10089\u81fa\u5317\u5e02\u4e2d\u6b63\u5340\u7f85\u65af\u798f\u8def3\u6bb5126\u4e4b5\u865fB1", "lat": 121.5281435, "line": "\u5c0f\u5357\u9580\u3001\u65b0\u5e97\u7dda", "id": "040"}, {"name": "\u516c\u9928", "lng": 25.014781, "address": "10091\u81fa\u5317\u5e02\u4e2d\u6b63\u5340\u7f85\u65af\u798f\u8def4\u6bb574\u865fB1", "lat": 121.534358, "line": "\u5c0f\u5357\u9580\u3001\u65b0\u5e97\u7dda", "id": "039"}, {"name": "\u842c\u9686", "lng": 25.001978, "address": "11678\u81fa\u5317\u5e02\u6587\u5c71\u5340\u7f85\u65af\u798f\u8def5\u6bb5214\u865f", "lat": 121.539008, "line": "\u5c0f\u5357\u9580\u3001\u65b0\u5e97\u7dda", "id": "038"}, {"name": "\u666f\u7f8e", "lng": 24.992824, "address": "11674\u81fa\u5317\u5e02\u6587\u5c71\u5340\u7f85\u65af\u798f\u8def6\u6bb5393\u865f", "lat": 121.5406975, "line": "\u5c0f\u5357\u9580\u3001\u65b0\u5e97\u7dda", "id": "037"}, {"name": "\u5927\u576a\u6797", "lng": 24.9827205, "address": "23143\u65b0\u5317\u5e02\u65b0\u5e97\u5340\u5317\u65b0\u8def3\u6bb5190\u865f", "lat": 121.54134, "line": "\u5c0f\u5357\u9580\u3001\u65b0\u5e97\u7dda", "id": "036"}, {"name": "\u4e03\u5f35", "lng": 24.97545, "address": "23143\u65b0\u5317\u5e02\u65b0\u5e97\u5340\u5317\u65b0\u8def2\u6bb5150\u865f", "lat": 121.542985, "line": "\u5c0f\u5357\u9580\u3001\u65b0\u5e97\u7dda", "id": "035"}, {"name": "\u5c0f\u78a7\u6f6d", "lng": 24.97188, "address": "23150\u65b0\u5317\u5e02\u65b0\u5e97\u5340\u4e2d\u592e\u8def151\u865f4\u6a13", "lat": 121.53058, "line": "\u5c0f\u5357\u9580\u3001\u65b0\u5e97\u7dda", "id": "032"}, {"name": "\u65b0\u5e97\u5340\u516c\u6240", "lng": 24.96744, "address": "23147\u65b0\u5317\u5e02\u65b0\u5e97\u5340\u5317\u65b0\u8def1\u6bb5295\u865f", "lat": 121.5413, "line": "\u5c0f\u5357\u9580\u3001\u65b0\u5e97\u7dda", "id": "034"}, {"name": "\u65b0\u5e97", "lng": 24.95761, "address": "23152\u65b0\u5317\u5e02\u65b0\u5e97\u5340\u5317\u5b9c\u8def1\u6bb52\u865f", "lat": 121.53746, "line": "\u5c0f\u5357\u9580\u3001\u65b0\u5e97\u7dda", "id": "033"}, {"name": "\u5357\u52e2\u89d2", "lng": 24.98991, "address": "23566\u65b0\u5317\u5e02\u4e2d\u548c\u5340\u6377\u904b\u8def6\u865f", "lat": 121.509355, "line": "\u4e2d\u548c\u3001\u8606\u6d32\u3001\u65b0\u838a\u7dda", "id": "048"}, {"name": "\u666f\u5b89", "lng": 24.99408, "address": "23582\u65b0\u5317\u5e02\u4e2d\u548c\u5340\u666f\u5e73\u8def486\u865f", "lat": 121.50509, "line": "\u4e2d\u548c\u3001\u8606\u6d32\u3001\u65b0\u838a\u7dda", "id": "047"}, {"name": "\u6c38\u5b89\u5e02\u5834", "lng": 25.00279, "address": "23574\u65b0\u5317\u5e02\u4e2d\u548c\u5340\u4e2d\u548c\u8def388\u865f", "lat": 121.51124, "line": "\u4e2d\u548c\u3001\u8606\u6d32\u3001\u65b0\u838a\u7dda", "id": "046"}, {"name": "\u9802\u6eaa", "lng": 25.01355, "address": "23445\u65b0\u5317\u5e02\u6c38\u548c\u5340\u6c38\u548c\u8def2\u6bb5168\u865fB1", "lat": 121.51526, "line": "\u4e2d\u548c\u3001\u8606\u6d32\u3001\u65b0\u838a\u7dda", "id": "045"}, {"name": "\u53e4\u4ead", "lng": 25.026675, "address": "10084\u81fa\u5317\u5e02\u4e2d\u6b63\u5340\u7f85\u65af\u798f\u8def2\u6bb5164\u4e4b1\u865fB1", "lat": 121.522635, "line": "\u4e2d\u548c\u3001\u8606\u6d32\u3001\u65b0\u838a\u7dda", "id": "041"}, {"name": "\u6771\u9580", "lng": 25.033894, "address": "10650\u81fa\u5317\u5e02\u5927\u5b89\u5340\u4fe1\u7fa9\u8def2\u6bb5166\u865fB1", "lat": 121.528766, "line": "\u4e2d\u548c\u3001\u8606\u6d32\u3001\u65b0\u838a\u7dda", "id": "134"}, {"name": "\u5fe0\u5b5d\u65b0\u751f", "lng": 25.041845, "address": "10652\u81fa\u5317\u5e02\u5927\u5b89\u5340\u65b0\u751f\u5357\u8def1\u6bb567\u865f", "lat": 121.532855, "line": "\u4e2d\u548c\u3001\u8606\u6d32\u3001\u65b0\u838a\u7dda", "id": "089"}, {"name": "\u677e\u6c5f\u5357\u4eac", "lng": 25.051885, "address": "10457\u81fa\u5317\u5e02\u4e2d\u5c71\u5340\u677e\u6c5f\u8def126\u865fB1", "lat": 121.53307, "line": "\u4e2d\u548c\u3001\u8606\u6d32\u3001\u65b0\u838a\u7dda", "id": "132"}, {"name": "\u884c\u5929\u5bae", "lng": 25.05924, "address": "10468\u81fa\u5317\u5e02\u4e2d\u5c71\u5340\u677e\u6c5f\u8def316\u865fB1", "lat": 121.53315, "line": "\u4e2d\u548c\u3001\u8606\u6d32\u3001\u65b0\u838a\u7dda", "id": "131"}, {"name": "\u4e2d\u5c71\u570b\u5c0f", "lng": 25.062665, "address": "10452\u81fa\u5317\u5e02\u4e2d\u5c71\u5340\u6c11\u6b0a\u6771\u8def1\u6bb571\u865fB1", "lat": 121.526609, "line": "\u4e2d\u548c\u3001\u8606\u6d32\u3001\u65b0\u838a\u7dda", "id": "130"}, {"name": "\u6c11\u6b0a\u897f\u8def", "lng": 25.06235, "address": "10365\u81fa\u5317\u5e02\u5927\u540c\u5340\u6c11\u6b0a\u897f\u8def72\u865f", "lat": 121.519585, "line": "\u4e2d\u548c\u3001\u8606\u6d32\u3001\u65b0\u838a\u7dda", "id": "055"}, {"name": "\u5927\u6a4b\u982d", "lng": 25.06322, "address": "10357\u81fa\u5317\u5e02\u5927\u540c\u5340\u6c11\u6b0a\u897f\u8def223\u865fB1", "lat": 121.5130035, "line": "\u4e2d\u548c\u3001\u8606\u6d32\u3001\u65b0\u838a\u7dda", "id": "128"}, {"name": "\u4e09\u91cd\u570b\u5c0f", "lng": 25.070275, "address": "24149\u65b0\u5317\u5e02\u4e09\u91cd\u5340\u4e09\u548c\u8def3\u6bb55\u865fB1", "lat": 121.49701, "line": "\u4e2d\u548c\u3001\u8606\u6d32\u3001\u65b0\u838a\u7dda", "id": "178"}, {"name": "\u4e09\u548c\u570b\u4e2d", "lng": 25.07646, "address": "24152\u65b0\u5317\u5e02\u4e09\u91cd\u5340\u4e09\u548c\u8def4\u6bb5107\u865fB1", "lat": 121.486795, "line": "\u4e2d\u548c\u3001\u8606\u6d32\u3001\u65b0\u838a\u7dda", "id": "177"}, {"name": "\u5f90\u532f\u4e2d\u5b78", "lng": 25.080485, "address": "24753\u65b0\u5317\u5e02\u8606\u6d32\u5340\u4e2d\u5c71\u4e00\u8def3\u865fB1", "lat": 121.479945, "line": "\u4e2d\u548c\u3001\u8606\u6d32\u3001\u65b0\u838a\u7dda", "id": "176"}, {"name": "\u4e09\u6c11\u9ad8\u4e2d", "lng": 25.085425, "address": "24760\u65b0\u5317\u5e02\u8606\u6d32\u5340\u4e09\u6c11\u8def105\u865fB1", "lat": 121.473365, "line": "\u4e2d\u548c\u3001\u8606\u6d32\u3001\u65b0\u838a\u7dda", "id": "175"}, {"name": "\u8606\u6d32", "lng": 25.09152, "address": "24760\u65b0\u5317\u5e02\u8606\u6d32\u5340\u4e09\u6c11\u8def386\u865fB1", "lat": 121.46471, "line": "\u4e2d\u548c\u3001\u8606\u6d32\u3001\u65b0\u838a\u7dda", "id": "174"}, {"name": "\u53f0\u5317\u6a4b", "lng": 25.063075, "address": "24142\u65b0\u5317\u5e02\u4e09\u91cd\u5340\u91cd\u65b0\u8def1\u6bb5108\u865fB1", "lat": 121.500575, "line": "\u4e2d\u548c\u3001\u8606\u6d32\u3001\u65b0\u838a\u7dda", "id": "127"}, {"name": "\u83dc\u5bee", "lng": 25.059995, "address": "24143\u65b0\u5317\u5e02\u4e09\u91cd\u5340\u91cd\u65b0\u8def3\u6bb5150\u865fB1", "lat": 121.49149, "line": "\u4e2d\u548c\u3001\u8606\u6d32\u3001\u65b0\u838a\u7dda", "id": "126"}, {"name": "\u4e09\u91cd", "lng": 25.05571, "address": "24161\u65b0\u5317\u5e02\u4e09\u91cd\u5340\u6377\u904b\u8def36\u865fB1", "lat": 121.48422, "line": "\u4e2d\u548c\u3001\u8606\u6d32\u3001\u65b0\u838a\u7dda", "id": "125"}, {"name": "\u5148\u55c7\u5bae", "lng": 25.04632, "address": "24158\u65b0\u5317\u5e02\u4e09\u91cd\u5340\u91cd\u65b0\u8def5\u6bb5515\u865fB1", "lat": 121.47165, "line": "\u4e2d\u548c\u3001\u8606\u6d32\u3001\u65b0\u838a\u7dda", "id": "124"}, {"name": "\u982d\u524d\u5e84", "lng": 25.039735, "address": "24251\u65b0\u5317\u5e02\u65b0\u838a\u5340\u601d\u6e90\u8def18\u865fB1", "lat": 121.461655, "line": "\u4e2d\u548c\u3001\u8606\u6d32\u3001\u65b0\u838a\u7dda", "id": "123"}, {"name": "\u65b0\u838a", "lng": 25.03608, "address": "24243\u65b0\u5317\u5e02\u65b0\u838a\u5340\u4e2d\u6b63\u8def138\u865fB1", "lat": 121.45218, "line": "\u4e2d\u548c\u3001\u8606\u6d32\u3001\u65b0\u838a\u7dda", "id": "122"}, {"name": "\u8f14\u5927", "lng": 25.03279, "address": "24205\u65b0\u5317\u5e02\u65b0\u838a\u5340\u4e2d\u6b63\u8def510\u4e4b1\u865fB1", "lat": 121.435735, "line": "\u4e2d\u548c\u3001\u8606\u6d32\u3001\u65b0\u838a\u7dda", "id": "121"}, {"name": "\u4e39\u9cf3", "lng": 25.029073, "address": "24256\u65b0\u5317\u5e02\u65b0\u838a\u5340\u4e2d\u6b63\u8def624\u4e4b1\u865fB1", "lat": 121.422422, "line": "\u4e2d\u548c\u3001\u8606\u6d32\u3001\u65b0\u838a\u7dda", "id": "180"}, {"name": "\u8ff4\u9f8d", "lng": 25.022107, "address": "24257\u65b0\u5317\u5e02\u65b0\u838a\u5340\u4e2d\u6b63\u8def758\u865fB1", "lat": 121.411757, "line": "\u4e2d\u548c\u3001\u8606\u6d32\u3001\u65b0\u838a\u7dda", "id": "179"}, {"name": "\u5357\u6e2f\u5c55\u89bd\u9928", "lng": 25.0553, "address": "\u6587\u6e56\u7dda\uff1a11568\u81fa\u5317\u5e02\u5357\u6e2f\u5340\u5357\u6e2f\u8def1\u6bb532\u865f,\u677f\u5357\u7dda\uff1a11568\u81fa\u5317\u5e02\u5357\u6e2f\u5340\u7814\u7a76\u9662\u8def1\u6bb51\u865f", "lat": 121.617575, "line": "\u5357\u6e2f\u3001\u677f\u6a4b\u3001\u571f\u57ce\u7dda", "id": "031"}, {"name": "\u5357\u6e2f", "lng": 25.052035, "address": "11561\u81fa\u5317\u5e02\u5357\u6e2f\u5340\u5fe0\u5b5d\u6771\u8def7\u6bb5380\u865f", "lat": 121.60697, "line": "\u5357\u6e2f\u3001\u677f\u6a4b\u3001\u571f\u57ce\u7dda", "id": "097"}, {"name": "\u6606\u967d", "lng": 25.0504585, "address": "11558\u81fa\u5317\u5e02\u5357\u6e2f\u5340\u5fe0\u5b5d\u6771\u8def6\u6bb5451\u865f", "lat": 121.5932285, "line": "\u5357\u6e2f\u3001\u677f\u6a4b\u3001\u571f\u57ce\u7dda", "id": "096"}, {"name": "\u5f8c\u5c71\u57e4", "lng": 25.044715, "address": "11575\u81fa\u5317\u5e02\u5357\u6e2f\u5340\u5fe0\u5b5d\u6771\u8def6\u6bb52\u865f", "lat": 121.58227, "line": "\u5357\u6e2f\u3001\u677f\u6a4b\u3001\u571f\u57ce\u7dda", "id": "095"}, {"name": "\u6c38\u6625", "lng": 25.040855, "address": "11061\u81fa\u5317\u5e02\u4fe1\u7fa9\u5340\u5fe0\u5b5d\u6771\u8def5\u6bb5455\u865f", "lat": 121.5762, "line": "\u5357\u6e2f\u3001\u677f\u6a4b\u3001\u571f\u57ce\u7dda", "id": "094"}, {"name": "\u5e02\u653f\u5e9c", "lng": 25.041135, "address": "11071\u81fa\u5317\u5e02\u4fe1\u7fa9\u5340\u5fe0\u5b5d\u6771\u8def5\u6bb52\u865f", "lat": 121.565685, "line": "\u5357\u6e2f\u3001\u677f\u6a4b\u3001\u571f\u57ce\u7dda", "id": "093"}, {"name": "\u570b\u7236\u7d00\u5ff5\u9928", "lng": 25.04137, "address": "11072\u81fa\u5317\u5e02\u4fe1\u7fa9\u5340\u5fe0\u5b5d\u6771\u8def4\u6bb5400\u865f", "lat": 121.557815, "line": "\u5357\u6e2f\u3001\u677f\u6a4b\u3001\u571f\u57ce\u7dda", "id": "092"}, {"name": "\u5fe0\u5b5d\u6566\u5316", "lng": 25.041505, "address": "10686\u81fa\u5317\u5e02\u5927\u5b89\u5340\u5fe0\u5b5d\u6771\u8def4\u6bb5182\u865f", "lat": 121.55045, "line": "\u5357\u6e2f\u3001\u677f\u6a4b\u3001\u571f\u57ce\u7dda", "id": "091"}, {"name": "\u5fe0\u5b5d\u5fa9\u8208", "lng": 25.04163, "address": "\u6587\u6e56\u7dda\uff1a10654\u81fa\u5317\u5e02\u5927\u5b89\u5340\u5fe0\u5b5d\u6771\u8def3\u6bb5302\u865f\u300110666\u81fa\u5317\u5e02\u5927\u5b89\u5340\u5fa9\u8208\u5357\u8def1\u6bb5180\u865f,\u677f\u5357\u7dda\uff1a10691\u81fa\u5317\u5e02\u5927\u5b89\u5340\u5fe0\u5b5d\u6771\u8def4\u6bb547\u865f", "lat": 121.5442, "line": "\u5357\u6e2f\u3001\u677f\u6a4b\u3001\u571f\u57ce\u7dda", "id": "010"}, {"name": "\u5fe0\u5b5d\u65b0\u751f", "lng": 25.041845, "address": "10652\u81fa\u5317\u5e02\u5927\u5b89\u5340\u65b0\u751f\u5357\u8def1\u6bb567\u865f", "lat": 121.532855, "line": "\u5357\u6e2f\u3001\u677f\u6a4b\u3001\u571f\u57ce\u7dda", "id": "089"}, {"name": "\u5584\u5c0e\u5bfa", "lng": 25.04468, "address": "10049\u81fa\u5317\u5e02\u4e2d\u6b63\u5340\u5fe0\u5b5d\u6771\u8def1\u6bb558\u865fB1", "lat": 121.523885, "line": "\u5357\u6e2f\u3001\u677f\u6a4b\u3001\u571f\u57ce\u7dda", "id": "088"}, {"name": "\u53f0\u5317\u8eca\u7ad9", "lng": 25.04631, "address": "10041\u81fa\u5317\u5e02\u4e2d\u6b63\u5340\u5fe0\u5b5d\u897f\u8def1\u6bb549\u865f", "lat": 121.517415, "line": "\u5357\u6e2f\u3001\u677f\u6a4b\u3001\u571f\u57ce\u7dda", "id": "051"}, {"name": "\u897f\u9580", "lng": 25.042025, "address": "10042\u81fa\u5317\u5e02\u4e2d\u6b63\u5340\u5bf6\u6176\u8def32\u4e4b1\u865fB1", "lat": 121.508175, "line": "\u5357\u6e2f\u3001\u677f\u6a4b\u3001\u571f\u57ce\u7dda", "id": "086"}, {"name": "\u9f8d\u5c71\u5bfa", "lng": 25.03528, "address": "10855\u81fa\u5317\u5e02\u842c\u83ef\u5340\u897f\u5712\u8def1\u6bb5153\u865f", "lat": 121.500325, "line": "\u5357\u6e2f\u3001\u677f\u6a4b\u3001\u571f\u57ce\u7dda", "id": "085"}, {"name": "\u6c5f\u5b50\u7fe0", "lng": 25.030265, "address": "22044\u65b0\u5317\u5e02\u677f\u6a4b\u5340\u6587\u5316\u8def2\u6bb5296\u865fB1", "lat": 121.47257, "line": "\u5357\u6e2f\u3001\u677f\u6a4b\u3001\u571f\u57ce\u7dda", "id": "084"}, {"name": "\u65b0\u57d4", "lng": 25.02327, "address": "22047\u65b0\u5317\u5e02\u677f\u6a4b\u5340\u6c11\u751f\u8def3\u6bb52\u865fB1", "lat": 121.468055, "line": "\u5357\u6e2f\u3001\u677f\u6a4b\u3001\u571f\u57ce\u7dda", "id": "083"}, {"name": "\u677f\u6a4b", "lng": 25.013825, "address": "22041\u65b0\u5317\u5e02\u677f\u6a4b\u5340\u7ad9\u524d\u8def5\u865fB1", "lat": 121.462305, "line": "\u5357\u6e2f\u3001\u677f\u6a4b\u3001\u571f\u57ce\u7dda", "id": "082"}, {"name": "\u5e9c\u4e2d", "lng": 25.008465, "address": "22055\u65b0\u5317\u5e02\u677f\u6a4b\u5340\u7e23\u6c11\u5927\u90531\u6bb5193\u865fB1", "lat": 121.459276, "line": "\u5357\u6e2f\u3001\u677f\u6a4b\u3001\u571f\u57ce\u7dda", "id": "081"}, {"name": "\u4e9e\u6771\u91ab\u9662", "lng": 24.99828, "address": "22060\u65b0\u5317\u5e02\u677f\u6a4b\u5340\u5357\u96c5\u5357\u8def2\u6bb517\u865fB1", "lat": 121.452465, "line": "\u5357\u6e2f\u3001\u677f\u6a4b\u3001\u571f\u57ce\u7dda", "id": "080"}, {"name": "\u6d77\u5c71", "lng": 24.985305, "address": "23660\u65b0\u5317\u5e02\u571f\u57ce\u5340\u6d77\u5c71\u8def39\u865fB2", "lat": 121.44873, "line": "\u5357\u6e2f\u3001\u677f\u6a4b\u3001\u571f\u57ce\u7dda", "id": "079"}, {"name": "\u571f\u57ce", "lng": 24.97313, "address": "23671\u65b0\u5317\u5e02\u571f\u57ce\u5340\u91d1\u57ce\u8def1\u6bb5105\u865fB1", "lat": 121.44432, "line": "\u5357\u6e2f\u3001\u677f\u6a4b\u3001\u571f\u57ce\u7dda", "id": "078"}, {"name": "\u6c38\u5be7", "lng": 24.96682, "address": "23671\u65b0\u5317\u5e02\u571f\u57ce\u5340\u4e2d\u592e\u8def3\u6bb5105\u865fB1", "lat": 121.43613, "line": "\u5357\u6e2f\u3001\u677f\u6a4b\u3001\u571f\u57ce\u7dda", "id": "077"}]
